0.002424001693725586,COMMAND_ACK,77,22,Arming
0.0024509429931640625,ATTITUDE,30,40,Arming
0.002460956573486328,ATTITUDE_QUATERNION,31,44,Arming
0.0024900436401367188,SERVO_OUTPUT_RAW,36,15,Arming
0.002502918243408203,UNKNOWN_410,-2,42,Arming
0.0025110244750976562,UNKNOWN_410,-2,30,Arming
0.0025169849395751953,UNKNOWN_410,-2,30,Arming
0.0025238990783691406,UNKNOWN_410,-2,30,Arming
0.0025300979614257812,UNKNOWN_410,-2,30,Arming
0.0025370121002197266,UNKNOWN_410,-2,30,Arming
0.006292104721069336,UNKNOWN_410,-2,42,Arming
0.006309032440185547,UNKNOWN_410,-2,30,Arming
0.006314992904663086,UNKNOWN_410,-2,30,Arming
0.0063190460205078125,UNKNOWN_410,-2,30,Arming
0.0063250064849853516,UNKNOWN_410,-2,30,Arming
0.006330966949462891,UNKNOWN_410,-2,30,Arming
0.010004043579101562,ATTITUDE,30,40,Arming
0.010040044784545898,LOCAL_POSITION_NED,32,40,Arming
0.010312080383300781,PARAM_VALUE,22,37,Arming
0.010358095169067383,PARAM_VALUE,22,37,Arming
0.010369062423706055,PARAM_VALUE,22,37,Arming
0.0103759765625,PARAM_VALUE,22,37,Arming
0.010380983352661133,PARAM_VALUE,22,37,Arming
0.010385990142822266,PARAM_VALUE,22,37,Arming
0.010390996932983398,PARAM_VALUE,22,37,Arming
0.010396003723144531,PARAM_VALUE,22,37,Arming
0.010404109954833984,PARAM_VALUE,22,37,Arming
0.01041102409362793,PARAM_VALUE,22,37,Arming
0.010417938232421875,PARAM_VALUE,22,37,Arming
0.010423898696899414,PARAM_VALUE,22,37,Arming
0.010431051254272461,PARAM_VALUE,22,37,Arming
0.010437965393066406,PARAM_VALUE,22,37,Arming
0.010443925857543945,PARAM_VALUE,22,37,Arming
0.010452032089233398,PARAM_VALUE,22,37,Arming
0.010458946228027344,PARAM_VALUE,22,37,Arming
0.01046609878540039,PARAM_VALUE,22,37,Arming
0.010473966598510742,PARAM_VALUE,22,37,Arming
0.010480880737304688,PARAM_VALUE,22,37,Arming
0.01444101333618164,ATTITUDE_TARGET,83,48,Arming
0.01814103126525879,HIGHRES_IMU,105,74,Arming
0.018157005310058594,ATTITUDE,30,40,Arming
0.018162965774536133,GLOBAL_POSITION_INT,33,40,Arming
0.018166065216064453,ATTITUDE_QUATERNION,31,44,Arming
0.0181729793548584,GLOBAL_POSITION_INT,33,40,Arming
0.01818108558654785,POSITION_TARGET_LOCAL_NED,85,63,Arming
0.022249937057495117,ATTITUDE,30,40,Arming
0.022269010543823242,ATTITUDE_QUATERNION,31,44,Arming
0.022283077239990234,SERVO_OUTPUT_RAW,36,15,Arming
0.026155948638916016,LOCAL_POSITION_NED,32,40,Arming
0.02617502212524414,ODOMETRY,331,244,Arming
0.026182889938354492,GPS_RAW_INT,24,56,Arming
0.0307309627532959,PARAM_VALUE,22,37,Arming
0.03075695037841797,PARAM_VALUE,22,37,Arming
0.030765056610107422,PARAM_VALUE,22,37,Arming
0.030772924423217773,PARAM_VALUE,22,37,Arming
0.03078007698059082,PARAM_VALUE,22,37,Arming
0.030787944793701172,PARAM_VALUE,22,37,Arming
0.030796051025390625,PARAM_VALUE,22,37,Arming
0.030803918838500977,PARAM_VALUE,22,37,Arming
0.03081202507019043,PARAM_VALUE,22,37,Arming
0.03081989288330078,PARAM_VALUE,22,37,Arming
0.030827045440673828,PARAM_VALUE,22,37,Arming
0.030833959579467773,PARAM_VALUE,22,37,Arming
0.030842065811157227,PARAM_VALUE,22,37,Arming
0.030848979949951172,PARAM_VALUE,22,37,Arming
0.03085803985595703,PARAM_VALUE,22,37,Arming
0.030865907669067383,PARAM_VALUE,22,37,Arming
0.030874013900756836,PARAM_VALUE,22,37,Arming
0.03088092803955078,PARAM_VALUE,22,37,Arming
0.030894994735717773,PARAM_VALUE,22,37,Arming
0.030894994735717773,ATTITUDE,30,40,Arming
0.030903100967407227,PARAM_VALUE,22,37,Arming
0.031008005142211914,LOCAL_POSITION_NED,32,40,Arming
0.03426408767700195,ATTITUDE_TARGET,83,48,Arming
0.03817296028137207,HIGHRES_IMU,105,73,Arming
0.03819108009338379,ATTITUDE,30,40,Arming
0.03819990158081055,ATTITUDE_QUATERNION,31,44,Arming
0.03820610046386719,GLOBAL_POSITION_INT,33,40,Arming
0.038207054138183594,GLOBAL_POSITION_INT,33,40,Arming
0.03822207450866699,POSITION_TARGET_LOCAL_NED,85,63,Arming
0.04043889045715332,SYSTEM_TIME,2,19,Arming
0.040515899658203125,SYSTEM_TIME,2,19,Arming
0.04056501388549805,PARAM_VALUE,22,37,Arming
0.04063701629638672,PARAM_VALUE,22,37,Arming
0.040656089782714844,PARAM_VALUE,22,37,Arming
0.04066205024719238,PARAM_VALUE,22,37,Arming
0.04066801071166992,PARAM_VALUE,22,37,Arming
0.040673017501831055,PARAM_VALUE,22,37,Arming
0.04067802429199219,PARAM_VALUE,22,37,Arming
0.04072093963623047,PARAM_VALUE,22,37,Arming
0.04075908660888672,PARAM_VALUE,22,37,Arming
0.04076695442199707,PARAM_VALUE,22,37,Arming
0.04077291488647461,PARAM_VALUE,22,37,Arming
0.04077792167663574,PARAM_VALUE,22,37,Arming
0.040782928466796875,PARAM_VALUE,22,37,Arming
0.040788888931274414,PARAM_VALUE,22,37,Arming
0.04079389572143555,PARAM_VALUE,22,37,Arming
0.04080009460449219,PARAM_VALUE,22,37,Arming
0.04080510139465332,PARAM_VALUE,22,37,Arming
0.04081106185913086,PARAM_VALUE,22,37,Arming
0.04081606864929199,PARAM_VALUE,22,37,Arming
0.040821075439453125,PARAM_VALUE,22,37,Arming
0.04098391532897949,MISSION_REQUEST_LIST,43,14,Arming
0.04107093811035156,MISSION_COUNT,44,21,Arming
0.04113507270812988,PARAM_SET,23,35,Arming
0.04118609428405762,UNKNOWN_345,-2,33,Arming
0.042066097259521484,ATTITUDE,30,40,Arming
0.04210090637207031,SYSTEM_TIME,2,19,Arming
0.04211091995239258,ATTITUDE_QUATERNION,31,44,Arming
0.04213309288024902,SERVO_OUTPUT_RAW,36,15,Arming
0.04353189468383789,MISSION_REQUEST_INT,51,16,Arming
0.043782949447631836,MISSION_ITEM_INT,73,49,Arming
0.04671192169189453,SYSTEM_TIME,2,19,Arming
0.05011892318725586,ATTITUDE,30,40,Arming
0.05014204978942871,LOCAL_POSITION_NED,32,40,Arming
0.05015897750854492,VFR_HUD,74,29,Arming
0.05452394485473633,ATTITUDE_TARGET,83,48,Arming
0.05874300003051758,HEARTBEAT,0,21,Arming
0.05884289741516113,TIMESYNC,111,25,Arming
0.05885601043701172,HIGHRES_IMU,105,73,Arming
0.058862924575805664,LOCAL_POSITION_NED,32,40,Arming
0.05887103080749512,ATTITUDE,30,40,Arming
0.05887794494628906,ALTITUDE,141,44,Arming
0.058888912200927734,ODOMETRY,331,244,Arming
0.058897972106933594,ATTITUDE_QUATERNION,31,44,Arming
0.05890488624572754,ATTITUDE_TARGET,83,48,Arming
0.05891299247741699,BATTERY_STATUS,147,53,Arming
0.05891990661621094,UNKNOWN_436,-2,20,Arming
0.058927059173583984,ESTIMATOR_STATUS,230,54,Arming
0.05893397331237793,EXTENDED_SYS_STATE,245,14,Arming
0.05894207954406738,GLOBAL_POSITION_INT,33,40,Arming
0.058949947357177734,GPS_RAW_INT,24,56,Arming
0.05895805358886719,HOME_POSITION,242,67,Arming
0.05896806716918945,OPEN_DRONE_ID_LOCATION,12901,70,Arming
0.0589749813079834,OPEN_DRONE_ID_SYSTEM,12904,37,Arming
0.05898308753967285,PING,4,21,Arming
0.0589900016784668,POSITION_TARGET_LOCAL_NED,85,63,Arming
0.05899810791015625,SCALED_PRESSURE,29,26,Arming
0.059005022048950195,SERVO_OUTPUT_RAW,36,15,Arming
0.05901288986206055,SYS_STATUS,1,52,Arming
0.059021949768066406,SYSTEM_TIME,2,22,Arming
0.059027910232543945,UNKNOWN_380,-2,32,Arming
0.05903506278991699,VFR_HUD,74,29,Arming
0.05904197692871094,VIBRATION,241,32,Arming
0.05904889106750488,UNKNOWN_8,-2,33,Arming
0.06027793884277344,HEARTBEAT,0,21,Arming
0.06029510498046875,HEARTBEAT,0,21,Arming
0.06031394004821777,HEARTBEAT,0,21,Arming
0.06032609939575195,HEARTBEAT,0,21,Arming
0.06042909622192383,MISSION_REQUEST_INT,51,16,Arming
0.06059002876281738,MISSION_ITEM_INT,73,49,Arming
0.06076788902282715,GLOBAL_POSITION_INT,33,40,Arming
0.06078195571899414,POSITION_TARGET_LOCAL_NED,85,63,Arming
0.060791969299316406,HEARTBEAT,0,21,Arming
0.06092405319213867,PING,4,26,Arming
0.06105399131774902,PING,4,26,Arming
0.061055898666381836,HEARTBEAT,0,21,Arming
0.061105966567993164,PING,4,26,Arming
0.06115293502807617,PING,4,26,Arming
0.06125903129577637,HEARTBEAT,0,21,Arming
0.06169390678405762,MISSION_REQUEST_INT,51,16,Arming
0.061881065368652344,MISSION_ITEM_INT,73,49,Arming
0.0626220703125,MISSION_REQUEST_INT,51,16,Arming
0.06292009353637695,ATTITUDE,30,40,Arming
0.06293296813964844,ATTITUDE_QUATERNION,31,44,Arming
0.06294393539428711,SERVO_OUTPUT_RAW,36,15,Arming
0.06371188163757324,MISSION_ITEM_INT,73,49,Arming
0.0646820068359375,MISSION_REQUEST_INT,51,16,Arming
0.06488990783691406,MISSION_ITEM_INT,73,49,Arming
0.06538891792297363,MISSION_REQUEST_INT,51,16,Arming
0.06560802459716797,MISSION_ITEM_INT,73,49,Arming
0.06595492362976074,MISSION_REQUEST_INT,51,16,Arming
0.06631588935852051,MISSION_ITEM_INT,73,49,Arming
0.06670904159545898,MISSION_REQUEST_INT,51,16,Arming
0.06694293022155762,MISSION_ITEM_INT,73,49,Arming
0.06762409210205078,MISSION_REQUEST_INT,51,16,Arming
0.06795597076416016,MISSION_ITEM_INT,73,49,Arming
0.06878209114074707,MISSION_REQUEST_INT,51,16,Arming
0.06912589073181152,MISSION_ITEM_INT,73,49,Arming
0.07084202766418457,ATTITUDE,30,40,Arming
0.07086992263793945,LOCAL_POSITION_NED,32,40,Arming
0.07139801979064941,MISSION_CURRENT,42,22,Arming
0.07151389122009277,HEARTBEAT,0,21,Arming
0.07443404197692871,ATTITUDE_TARGET,83,48,Arming
0.07827210426330566,HIGHRES_IMU,105,74,Arming
0.07835102081298828,ATTITUDE,30,40,Arming
0.0783700942993164,ATTITUDE_QUATERNION,31,44,Arming
0.07838606834411621,GLOBAL_POSITION_INT,33,40,Arming
0.07849788665771484,GLOBAL_POSITION_INT,33,40,Arming
0.07855701446533203,POSITION_TARGET_LOCAL_NED,85,63,Arming
0.07894611358642578,MISSION_REQUEST_INT,51,16,Arming
0.0791020393371582,MISSION_ITEM_INT,73,49,Arming
0.07948708534240723,MISSION_REQUEST_INT,51,16,Arming
0.07970499992370605,MISSION_ITEM_INT,73,49,Arming
0.08003401756286621,MISSION_REQUEST_INT,51,16,Arming
0.0802609920501709,MISSION_ITEM_INT,73,49,Arming
0.08070206642150879,MISSION_REQUEST_INT,51,16,Arming
0.0809929370880127,MISSION_ITEM_INT,73,49,Arming
0.08160996437072754,MISSION_REQUEST_INT,51,16,Arming
0.08194589614868164,MISSION_ITEM_INT,73,49,Arming
0.08233094215393066,ATTITUDE,30,40,Arming
0.08234310150146484,ATTITUDE_QUATERNION,31,44,Arming
0.08235311508178711,SERVO_OUTPUT_RAW,36,15,Arming
0.08281803131103516,MISSION_REQUEST_INT,51,16,Arming
0.0831749439239502,MISSION_ITEM_INT,73,49,Arming
0.08357691764831543,MISSION_REQUEST_INT,51,16,Arming
0.08374905586242676,MISSION_ITEM_INT,73,49,Arming
0.08417701721191406,MISSION_REQUEST_INT,51,16,Arming
0.08430099487304688,MISSION_ITEM_INT,73,49,Arming
0.08455991744995117,MISSION_REQUEST_INT,51,16,Arming
0.08467388153076172,MISSION_ITEM_INT,73,49,Arming
0.08509206771850586,MISSION_REQUEST_INT,51,16,Arming
0.08533406257629395,MISSION_ITEM_INT,73,49,Arming
0.09022307395935059,ATTITUDE,30,40,Arming
0.09024810791015625,LOCAL_POSITION_NED,32,40,Arming
0.09025001525878906,GPS_RAW_INT,24,56,Arming
0.09181904792785645,MISSION_REQUEST_INT,51,16,Arming
0.09192991256713867,MISSION_ITEM_INT,73,49,Arming
0.09229493141174316,MISSION_REQUEST_INT,51,16,Arming
0.09255290031433105,MISSION_ITEM_INT,73,49,Arming
0.09291505813598633,MISSION_REQUEST_INT,51,16,Arming
0.09311294555664062,MISSION_ITEM_INT,73,49,Arming
0.09344696998596191,MISSION_REQUEST_INT,51,16,Arming
0.09369897842407227,MISSION_ITEM_INT,73,49,Arming
0.0940101146697998,MISSION_REQUEST_INT,51,16,Arming
0.09418988227844238,LOCAL_POSITION_NED,32,40,Arming
0.0942220687866211,ATTITUDE_TARGET,83,48,Arming
0.09424304962158203,ODOMETRY,331,244,Arming
0.09453105926513672,MISSION_ITEM_INT,73,49,Arming
0.09494495391845703,MISSION_REQUEST_INT,51,16,Arming
0.09521293640136719,MISSION_ITEM_INT,73,49,Arming
0.09552502632141113,MISSION_REQUEST_INT,51,16,Arming
0.09591507911682129,MISSION_ITEM_INT,73,49,Arming
0.0962519645690918,MISSION_REQUEST_INT,51,16,Arming
0.09646797180175781,MISSION_ITEM_INT,73,49,Arming
0.09680390357971191,MISSION_REQUEST_INT,51,16,Arming
0.09698295593261719,MISSION_ITEM_INT,73,49,Arming
0.09723305702209473,MISSION_REQUEST_INT,51,16,Arming
0.09748101234436035,MISSION_ITEM_INT,73,49,Arming
0.09783101081848145,MISSION_REQUEST_INT,51,16,Arming
0.0981299877166748,HIGHRES_IMU,105,73,Arming
0.09814310073852539,GLOBAL_POSITION_INT,33,40,Arming
0.0981600284576416,POSITION_TARGET_LOCAL_NED,85,63,Arming
0.09818005561828613,ATTITUDE,30,40,Arming
0.0981910228729248,ATTITUDE_QUATERNION,31,44,Arming
0.09819889068603516,GLOBAL_POSITION_INT,33,40,Arming
0.09829306602478027,MISSION_ITEM_INT,73,49,Arming
0.09854292869567871,MISSION_REQUEST_INT,51,16,Arming
0.09871101379394531,MISSION_ITEM_INT,73,49,Arming
0.09900808334350586,MISSION_REQUEST_INT,51,16,Arming
0.09913301467895508,MISSION_ITEM_INT,73,49,Arming
0.0994110107421875,MISSION_REQUEST_INT,51,16,Arming
0.09959006309509277,MISSION_ITEM_INT,73,49,Arming
0.09997200965881348,MISSION_REQUEST_INT,51,16,Arming
0.10014104843139648,MISSION_ITEM_INT,73,49,Arming
0.10045099258422852,MISSION_REQUEST_INT,51,16,Arming
0.10063004493713379,MISSION_ITEM_INT,73,49,Arming
0.1009519100189209,MISSION_REQUEST_INT,51,16,Arming
0.10114407539367676,MISSION_ITEM_INT,73,49,Arming
0.1014549732208252,MISSION_REQUEST_INT,51,16,Arming
0.1017160415649414,MISSION_ITEM_INT,73,49,Arming
0.1023259162902832,ATTITUDE,30,40,Arming
0.1023719310760498,ATTITUDE_QUATERNION,31,44,Arming
0.10239005088806152,SERVO_OUTPUT_RAW,36,15,Arming
0.1085200309753418,MISSION_REQUEST_INT,51,16,Arming
0.10869693756103516,MISSION_ITEM_INT,73,49,Arming
0.10898590087890625,MISSION_REQUEST_INT,51,16,Arming
0.10913491249084473,MISSION_ITEM_INT,73,49,Arming
0.10935091972351074,MISSION_REQUEST_INT,51,16,Arming
0.10948705673217773,MISSION_ITEM_INT,73,49,Arming
0.1096949577331543,MISSION_REQUEST_INT,51,16,Arming
0.10985994338989258,MISSION_ITEM_INT,73,49,Arming
0.11005592346191406,ATTITUDE,30,40,Arming
0.11008906364440918,LOCAL_POSITION_NED,32,40,Arming
0.11011695861816406,MISSION_REQUEST_INT,51,16,Arming
0.11033987998962402,MISSION_ITEM_INT,73,49,Arming
0.11060905456542969,MISSION_REQUEST_INT,51,16,Arming
0.11078190803527832,MISSION_ITEM_INT,73,49,Arming
0.11134791374206543,MISSION_REQUEST_INT,51,16,Arming
0.11141204833984375,MISSION_ITEM_INT,73,49,Arming
0.1116940975189209,MISSION_REQUEST_INT,51,16,Arming
0.11193990707397461,MISSION_ITEM_INT,73,49,Arming
0.11228609085083008,MISSION_REQUEST_INT,51,16,Arming
0.11246204376220703,MISSION_ITEM_INT,73,49,Arming
0.11285090446472168,MISSION_REQUEST_INT,51,16,Arming
0.11300992965698242,MISSION_ITEM_INT,73,49,Arming
0.11324501037597656,MISSION_REQUEST_INT,51,16,Arming
0.11339807510375977,MISSION_ITEM_INT,73,49,Arming
0.11363792419433594,MISSION_REQUEST_INT,51,16,Arming
0.11380791664123535,MISSION_ITEM_INT,73,49,Arming
0.11404109001159668,ATTITUDE_TARGET,83,48,Arming
0.11419200897216797,MISSION_REQUEST_INT,51,16,Arming
0.11437511444091797,MISSION_ITEM_INT,73,49,Arming
0.11464190483093262,MISSION_REQUEST_INT,51,16,Arming
0.11484408378601074,MISSION_ITEM_INT,73,49,Arming
0.11514711380004883,MISSION_REQUEST_INT,51,16,Arming
0.11531496047973633,MISSION_ITEM_INT,73,49,Arming
0.11554789543151855,MISSION_REQUEST_INT,51,16,Arming
0.11575603485107422,MISSION_ITEM_INT,73,49,Arming
0.1161661148071289,MISSION_REQUEST_INT,51,16,Arming
0.1163480281829834,MISSION_ITEM_INT,73,49,Arming
0.1166539192199707,MISSION_REQUEST_INT,51,16,Arming
0.11682295799255371,MISSION_ITEM_INT,73,49,Arming
0.11705303192138672,MISSION_REQUEST_INT,51,16,Arming
0.11722087860107422,MISSION_ITEM_INT,73,49,Arming
0.11754703521728516,MISSION_REQUEST_INT,51,16,Arming
0.1177520751953125,MISSION_ITEM_INT,73,49,Arming
0.11805009841918945,MISSION_REQUEST_INT,51,16,Arming
0.11819100379943848,GLOBAL_POSITION_INT,33,40,Arming
0.11824703216552734,POSITION_TARGET_LOCAL_NED,85,63,Arming
0.11841106414794922,MISSION_ITEM_INT,73,49,Arming
0.11945199966430664,HIGHRES_IMU,105,73,Arming
0.11952996253967285,ATTITUDE,30,40,Arming
0.11954593658447266,ATTITUDE_QUATERNION,31,44,Arming
0.11955595016479492,GLOBAL_POSITION_INT,33,40,Arming
0.12015700340270996,COMMAND_LONG,76,44,Arming
0.12020397186279297,COMMAND_LONG,76,44,Arming
0.12021899223327637,COMMAND_LONG,76,44,Arming
0.12037491798400879,COMMAND_LONG,76,44,Arming
0.12047100067138672,AUTOPILOT_VERSION,148,72,Arming
0.12247300148010254,COMMAND_ACK,77,22,Arming
0.12247705459594727,ATTITUDE,30,40,Arming
0.12252497673034668,ATTITUDE_QUATERNION,31,44,Arming
0.12253999710083008,SERVO_OUTPUT_RAW,36,15,Arming
0.12272500991821289,COMMAND_LONG,76,44,Arming
0.12275910377502441,COMMAND_LONG,76,44,Arming
0.12279605865478516,COMMAND_LONG,76,44,Arming
0.12283706665039062,COMMAND_LONG,76,44,Arming
0.12287497520446777,HOME_POSITION,242,67,Arming
0.1252729892730713,MISSION_REQUEST_INT,51,16,Arming
0.1254720687866211,MISSION_ITEM_INT,73,49,Arming
0.12581205368041992,MISSION_REQUEST_INT,51,16,Arming
0.12607908248901367,COMMAND_ACK,77,22,Arming
0.12609601020812988,LOCAL_POSITION_NED,32,40,Arming
0.12610697746276855,ODOMETRY,331,244,Arming
0.12611603736877441,GPS_RAW_INT,24,56,Arming
0.12624001502990723,MISSION_ITEM_INT,73,49,Arming
0.12650394439697266,MISSION_REQUEST_INT,51,16,Arming
0.12664794921875,MISSION_ITEM_INT,73,49,Arming
0.127410888671875,MISSION_REQUEST_INT,51,16,Arming
0.12779903411865234,MISSION_ITEM_INT,73,49,Arming
0.12822198867797852,MISSION_REQUEST_INT,51,16,Arming
0.1284470558166504,MISSION_ITEM_INT,73,49,Arming
0.12872099876403809,MISSION_REQUEST_INT,51,16,Arming
0.1288928985595703,MISSION_ITEM_INT,73,49,Arming
0.1291639804840088,MISSION_REQUEST_INT,51,16,Arming
0.12932205200195312,MISSION_ITEM_INT,73,49,Arming
0.12962794303894043,MISSION_REQUEST_INT,51,16,Arming
0.12978291511535645,MISSION_ITEM_INT,73,49,Arming
0.13009095191955566,MISSION_REQUEST_INT,51,16,Arming
0.13014602661132812,LOCAL_POSITION_NED,32,40,Arming
0.13019895553588867,ATTITUDE,30,40,Arming
0.130295991897583,MISSION_ITEM_INT,73,49,Arming
0.13039493560791016,PING,4,17,Arming
0.13043689727783203,PING,4,17,Arming
0.13047504425048828,PING,4,17,Arming
0.13048791885375977,PING,4,17,Arming
0.13054203987121582,MISSION_REQUEST_INT,51,16,Arming
0.1305549144744873,PING,4,26,Arming
0.13062596321105957,PING,4,26,Arming
0.1306619644165039,MISSION_ITEM_INT,73,49,Arming
0.13072705268859863,PING,4,26,Arming
0.1307680606842041,PING,4,26,Arming
0.13089299201965332,MISSION_REQUEST_INT,51,16,Arming
0.13109087944030762,MISSION_ITEM_INT,73,49,Arming
0.13135790824890137,MISSION_REQUEST_INT,51,16,Arming
0.1316080093383789,MISSION_ITEM_INT,73,49,Arming
0.13189411163330078,MISSION_REQUEST_INT,51,16,Arming
0.13205909729003906,MISSION_ITEM_INT,73,49,Arming
0.1323080062866211,MISSION_REQUEST_INT,51,16,Arming
0.1324620246887207,MISSION_ITEM_INT,73,49,Arming
0.13267207145690918,MISSION_REQUEST_INT,51,16,Arming
0.13281989097595215,MISSION_ITEM_INT,73,49,Arming
0.13305401802062988,MISSION_REQUEST_INT,51,16,Arming
0.13320088386535645,MISSION_ITEM_INT,73,49,Arming
0.13340401649475098,MISSION_REQUEST_INT,51,16,Arming
0.13354992866516113,MISSION_ITEM_INT,73,49,Arming
0.13377904891967773,MISSION_REQUEST_INT,51,16,Arming
0.13390493392944336,MISSION_ITEM_INT,73,49,Arming
0.1340630054473877,ATTITUDE_TARGET,83,48,Arming
0.1341109275817871,PING,4,17,Arming
0.13412809371948242,MISSION_REQUEST_INT,51,16,Arming
0.1343090534210205,MISSION_ITEM_INT,73,49,Arming
0.1345689296722412,MISSION_REQUEST_INT,51,16,Arming
0.13482189178466797,MISSION_ITEM_INT,73,49,Arming
0.1351299285888672,MISSION_REQUEST_INT,51,16,Arming
0.13540005683898926,MISSION_ITEM_INT,73,49,Arming
0.13837289810180664,HIGHRES_IMU,105,74,Arming
0.1384260654449463,GLOBAL_POSITION_INT,33,40,Arming
0.13846492767333984,POSITION_TARGET_LOCAL_NED,85,63,Arming
0.13846993446350098,ATTITUDE,30,40,Arming
0.13849401473999023,ATTITUDE_QUATERNION,31,44,Arming
0.13851094245910645,GLOBAL_POSITION_INT,33,40,Arming
0.14165401458740234,MISSION_REQUEST_INT,51,16,Arming
0.1418440341949463,MISSION_ITEM_INT,73,49,Arming
0.14217591285705566,MISSION_REQUEST_INT,51,16,Arming
0.1421809196472168,ATTITUDE,30,40,Arming
0.1422109603881836,ATTITUDE_QUATERNION,31,44,Arming
0.14222407341003418,SERVO_OUTPUT_RAW,36,15,Arming
0.14236187934875488,MISSION_ITEM_INT,73,49,Arming
0.1427149772644043,MISSION_REQUEST_INT,51,16,Arming
0.1431419849395752,MISSION_ITEM_INT,73,49,Arming
0.1434919834136963,MISSION_ACK,47,14,Arming
0.1440138816833496,MISSION_REQUEST_LIST,43,15,Arming
0.14434194564819336,MISSION_COUNT,44,17,Arming
0.15202689170837402,ATTITUDE,30,40,Arming
0.15208697319030762,LOCAL_POSITION_NED,32,40,Arming
0.15467095375061035,ATTITUDE_TARGET,83,48,Arming
0.15810799598693848,TIMESYNC,111,25,Arming
0.15812110900878906,GLOBAL_POSITION_INT,33,40,Arming
0.158128023147583,HIGHRES_IMU,105,73,Arming
0.15813493728637695,LOCAL_POSITION_NED,32,40,Arming
0.15814208984375,ATTITUDE,30,40,Arming
0.15814900398254395,ALTITUDE,141,44,Arming
0.1581571102142334,ODOMETRY,331,244,Arming
0.15816402435302734,ATTITUDE_QUATERNION,31,44,Arming
0.1581709384918213,ATTITUDE_TARGET,83,48,Arming
0.15817809104919434,GLOBAL_POSITION_INT,33,40,Arming
0.15818405151367188,GPS_RAW_INT,24,56,Arming
0.15819191932678223,POSITION_TARGET_LOCAL_NED,85,63,Arming
0.15819907188415527,SERVO_OUTPUT_RAW,36,15,Arming
0.15820598602294922,VFR_HUD,74,29,Arming
0.1582479476928711,POSITION_TARGET_LOCAL_NED,85,63,Arming
0.1625680923461914,ATTITUDE,30,40,Arming
0.16258597373962402,ATTITUDE_QUATERNION,31,44,Arming
0.16260194778442383,SERVO_OUTPUT_RAW,36,15,Arming
0.17028093338012695,LOCAL_POSITION_NED,32,40,Arming
0.17035698890686035,ATTITUDE,30,40,Arming
0.1741321086883545,ATTITUDE_TARGET,83,48,Arming
0.1779921054840088,GLOBAL_POSITION_INT,33,40,Arming
0.17801308631896973,POSITION_TARGET_LOCAL_NED,85,63,Arming
0.17810487747192383,HIGHRES_IMU,105,73,Arming
0.17816495895385742,ATTITUDE,30,40,Arming
0.1781759262084961,ATTITUDE_QUATERNION,31,44,Arming
0.17818498611450195,GLOBAL_POSITION_INT,33,40,Arming
0.1828770637512207,ATTITUDE,30,40,Arming
0.18302488327026367,ATTITUDE_QUATERNION,31,44,Arming
0.18304896354675293,SERVO_OUTPUT_RAW,36,15,Arming
0.190093994140625,ATTITUDE,30,40,Arming
0.19011998176574707,LOCAL_POSITION_NED,32,40,Arming
0.1902310848236084,GPS_RAW_INT,24,56,Arming
0.1942119598388672,LOCAL_POSITION_NED,32,40,Arming
0.19423294067382812,ODOMETRY,331,244,Arming
0.19424891471862793,ATTITUDE_TARGET,83,48,Arming
0.19858503341674805,HIGHRES_IMU,105,74,Arming
0.1986069679260254,GLOBAL_POSITION_INT,33,40,Arming
0.1986219882965088,ATTITUDE,30,40,Arming
0.1986379623413086,ATTITUDE_QUATERNION,31,44,Arming
0.19865107536315918,GLOBAL_POSITION_INT,33,40,Arming
0.19867205619812012,GPS_RAW_INT,24,56,Arming
0.1987318992614746,POSITION_TARGET_LOCAL_NED,85,63,Arming
0.20222210884094238,ATTITUDE,30,40,Arming
0.2022690773010254,ATTITUDE_QUATERNION,31,44,Arming
0.20228004455566406,SERVO_OUTPUT_RAW,36,15,Arming
0.21010804176330566,ATTITUDE,30,40,Arming
0.21011710166931152,LOCAL_POSITION_NED,32,40,Arming
0.21456408500671387,ATTITUDE_TARGET,83,48,Arming
0.21811795234680176,HIGHRES_IMU,105,73,Arming
0.2181389331817627,ATTITUDE,30,40,Arming
0.2181398868560791,GLOBAL_POSITION_INT,33,40,Arming
0.21814894676208496,ATTITUDE_QUATERNION,31,44,Arming
0.21815705299377441,GLOBAL_POSITION_INT,33,40,Arming
0.21815800666809082,POSITION_TARGET_LOCAL_NED,85,63,Arming
0.22211599349975586,GPS_RAW_INT,24,56,Arming
0.22221994400024414,ATTITUDE,30,40,Arming
0.2222731113433838,ATTITUDE_QUATERNION,31,44,Arming
0.22228789329528809,SERVO_OUTPUT_RAW,36,15,Arming
0.22608590126037598,LOCAL_POSITION_NED,32,40,Arming
0.2261040210723877,ODOMETRY,331,244,Arming
0.23078203201293945,LOCAL_POSITION_NED,32,40,Arming
0.23081207275390625,ATTITUDE,30,40,Arming
0.23413801193237305,ATTITUDE_TARGET,83,48,Arming
0.2381138801574707,HIGHRES_IMU,105,73,Arming
0.23813295364379883,ATTITUDE,30,40,Arming
0.2381420135498047,ATTITUDE_QUATERNION,31,44,Arming
0.23814988136291504,GLOBAL_POSITION_INT,33,40,Arming
0.2381589412689209,GLOBAL_POSITION_INT,33,40,Arming
0.23818492889404297,POSITION_TARGET_LOCAL_NED,85,63,Arming
0.2422928810119629,ATTITUDE,30,40,Arming
0.2423410415649414,ATTITUDE_QUATERNION,31,44,Arming
0.2423560619354248,SERVO_OUTPUT_RAW,36,15,Arming
0.250075101852417,LOCAL_POSITION_NED,32,40,Arming
0.2500760555267334,ATTITUDE,30,40,Arming
0.2541370391845703,ATTITUDE_TARGET,83,48,Arming
0.25809192657470703,TIMESYNC,111,25,Arming
0.25810909271240234,HIGHRES_IMU,105,74,Arming
0.2581150531768799,LOCAL_POSITION_NED,32,40,Arming
0.258120059967041,GLOBAL_POSITION_INT,33,40,Arming
0.25812196731567383,ATTITUDE,30,40,Arming
0.25812697410583496,ALTITUDE,141,44,Arming
0.2581360340118408,ODOMETRY,331,244,Arming
0.2581369876861572,POSITION_TARGET_LOCAL_NED,85,63,Arming
0.25814199447631836,ATTITUDE_QUATERNION,31,44,Arming
0.2581470012664795,ATTITUDE_TARGET,83,48,Arming
0.25815391540527344,GLOBAL_POSITION_INT,33,40,Arming
0.2581601142883301,GPS_RAW_INT,24,56,Arming
0.258167028427124,POSITION_TARGET_LOCAL_NED,85,63,Arming
0.25817298889160156,SERVO_OUTPUT_RAW,36,15,Arming
0.2581799030303955,SYS_STATUS,1,52,Arming
0.25818610191345215,VFR_HUD,74,29,Arming
0.2622098922729492,ATTITUDE,30,40,Arming
0.26222705841064453,ATTITUDE_QUATERNION,31,44,Arming
0.262239933013916,SERVO_OUTPUT_RAW,36,15,Arming
0.27010393142700195,ATTITUDE,30,40,Arming
0.270129919052124,LOCAL_POSITION_NED,32,40,Arming
0.27419304847717285,ATTITUDE_TARGET,83,48,Arming
0.27813291549682617,HIGHRES_IMU,105,74,Arming
0.2781500816345215,ATTITUDE,30,40,Arming
0.27816104888916016,ATTITUDE_QUATERNION,31,44,Arming
0.2781679630279541,GLOBAL_POSITION_INT,33,40,Arming
0.2781679630279541,GLOBAL_POSITION_INT,33,40,Arming
0.2781860828399658,POSITION_TARGET_LOCAL_NED,85,63,Arming
0.2821080684661865,ATTITUDE,30,40,Arming
0.2821500301361084,ATTITUDE_QUATERNION,31,44,Arming
0.2821629047393799,SERVO_OUTPUT_RAW,36,15,Arming
0.2901740074157715,ATTITUDE,30,40,Arming
0.29019594192504883,LOCAL_POSITION_NED,32,40,Arming
0.29022693634033203,GPS_RAW_INT,24,56,Arming
0.2941269874572754,LOCAL_POSITION_NED,32,40,Arming
0.2941460609436035,ODOMETRY,331,244,Arming
0.2941761016845703,ATTITUDE_TARGET,83,48,Arming
0.29817891120910645,HIGHRES_IMU,105,73,Arming
0.2981998920440674,ATTITUDE,30,40,Arming
0.2982039451599121,GLOBAL_POSITION_INT,33,40,Arming
0.29821109771728516,ATTITUDE_QUATERNION,31,44,Arming
0.2982189655303955,GLOBAL_POSITION_INT,33,40,Arming
0.29822206497192383,POSITION_TARGET_LOCAL_NED,85,63,Arming
0.2982308864593506,VFR_HUD,74,29,Arming
0.30214500427246094,ATTITUDE,30,40,Arming
0.30219602584838867,ATTITUDE_QUATERNION,31,44,Arming
0.30221104621887207,SERVO_OUTPUT_RAW,36,15,Arming
0.31016993522644043,ATTITUDE,30,40,Arming
0.3101820945739746,LOCAL_POSITION_NED,32,40,Arming
0.31407999992370605,ATTITUDE_TARGET,83,48,Arming
0.3180809020996094,GLOBAL_POSITION_INT,33,40,Arming
0.31812405586242676,POSITION_TARGET_LOCAL_NED,85,63,Arming
0.31814002990722656,HIGHRES_IMU,105,74,Arming
0.31815600395202637,ATTITUDE,30,40,Arming
0.3181641101837158,ATTITUDE_QUATERNION,31,44,Arming
0.31817102432250977,GLOBAL_POSITION_INT,33,40,Arming
0.32211899757385254,GPS_RAW_INT,24,56,Arming
0.322145938873291,ATTITUDE,30,40,Arming
0.3222079277038574,ATTITUDE_QUATERNION,31,44,Arming
0.322221040725708,SERVO_OUTPUT_RAW,36,15,Arming
0.32610106468200684,LOCAL_POSITION_NED,32,40,Arming
0.32611894607543945,ODOMETRY,331,244,Arming
0.3301060199737549,ATTITUDE,30,40,Arming
0.33012890815734863,LOCAL_POSITION_NED,32,40,Arming
0.33412790298461914,ATTITUDE_TARGET,83,48,Arming
0.33809590339660645,HIGHRES_IMU,105,73,Arming
0.33811402320861816,GLOBAL_POSITION_INT,33,40,Arming
0.33811402320861816,ATTITUDE,30,40,Arming
0.3381209373474121,ATTITUDE_QUATERNION,31,44,Arming
0.33812689781188965,GLOBAL_POSITION_INT,33,40,Arming
0.3381319046020508,POSITION_TARGET_LOCAL_NED,85,63,Arming
0.34209394454956055,ATTITUDE,30,40,Arming
0.34210801124572754,ATTITUDE_QUATERNION,31,44,Arming
0.342120885848999,SERVO_OUTPUT_RAW,36,15,Arming
0.350114107131958,ATTITUDE,30,40,Arming
0.35013794898986816,LOCAL_POSITION_NED,32,40,Arming
0.35408902168273926,GPS_RAW_INT,24,56,Arming
0.35413599014282227,ATTITUDE_TARGET,83,48,Arming
0.35806798934936523,TIMESYNC,111,25,Arming
0.35808610916137695,HIGHRES_IMU,105,73,Arming
0.3580899238586426,GLOBAL_POSITION_INT,33,40,Arming
0.3580920696258545,LOCAL_POSITION_NED,32,40,Arming
0.35809993743896484,ATTITUDE,30,40,Arming
0.35810303688049316,POSITION_TARGET_LOCAL_NED,85,63,Arming
0.3581058979034424,ALTITUDE,141,44,Arming
0.35811495780944824,ODOMETRY,331,244,Arming
0.3581209182739258,ATTITUDE_QUATERNION,31,44,Arming
0.3581259250640869,ATTITUDE_TARGET,83,48,Arming
0.35813188552856445,GLOBAL_POSITION_INT,33,40,Arming
0.3581380844116211,POSITION_TARGET_LOCAL_NED,85,63,Arming
0.3581430912017822,SERVO_OUTPUT_RAW,36,15,Arming
0.35814809799194336,VFR_HUD,74,29,Arming
0.3621649742126465,ATTITUDE,30,40,Arming
0.3622090816497803,ATTITUDE_QUATERNION,31,44,Arming
0.36222290992736816,SERVO_OUTPUT_RAW,36,15,Arming
0.37018609046936035,ATTITUDE,30,40,Arming
0.370189905166626,LOCAL_POSITION_NED,32,40,Arming
0.3740220069885254,ATTITUDE_TARGET,83,48,Arming
0.37807488441467285,HIGHRES_IMU,105,74,Arming
0.37809109687805176,ATTITUDE,30,40,Arming
0.3780999183654785,ATTITUDE_QUATERNION,31,44,Arming
0.37810707092285156,GLOBAL_POSITION_INT,33,40,Arming
0.3781418800354004,GLOBAL_POSITION_INT,33,40,Arming
0.3781580924987793,POSITION_TARGET_LOCAL_NED,85,63,Arming
0.38205909729003906,ATTITUDE,30,40,Arming
0.38210296630859375,ATTITUDE_QUATERNION,31,44,Arming
0.38211607933044434,SERVO_OUTPUT_RAW,36,15,Arming
0.3900721073150635,ATTITUDE,30,40,Arming
0.3901200294494629,GPS_RAW_INT,24,56,Arming
0.3901560306549072,LOCAL_POSITION_NED,32,40,Arming
0.3940589427947998,LOCAL_POSITION_NED,32,40,Arming
0.39409899711608887,ATTITUDE_TARGET,83,48,Arming
0.39410901069641113,ODOMETRY,331,244,Arming
0.3980720043182373,GLOBAL_POSITION_INT,33,40,Arming
0.3980720043182373,HIGHRES_IMU,105,73,Arming
0.3980860710144043,GPS_RAW_INT,24,56,Arming
0.3980860710144043,ATTITUDE,30,40,Arming
0.39809489250183105,POSITION_TARGET_LOCAL_NED,85,63,Arming
0.39809489250183105,ATTITUDE_QUATERNION,31,44,Arming
0.3981020450592041,GLOBAL_POSITION_INT,33,40,Arming
0.40209102630615234,ATTITUDE,30,40,Arming
0.40213704109191895,ATTITUDE_QUATERNION,31,44,Arming
0.40215110778808594,SERVO_OUTPUT_RAW,36,15,Arming
0.41008901596069336,ATTITUDE,30,40,Arming
0.4101130962371826,LOCAL_POSITION_NED,32,40,Arming
0.4141380786895752,ATTITUDE_TARGET,83,48,Arming
0.41811108589172363,HIGHRES_IMU,105,74,Arming
0.41814708709716797,ATTITUDE,30,40,Arming
0.41815710067749023,ATTITUDE_QUATERNION,31,44,Arming
0.4181649684906006,GLOBAL_POSITION_INT,33,40,Arming
0.41820788383483887,GLOBAL_POSITION_INT,33,40,Arming
0.41825389862060547,POSITION_TARGET_LOCAL_NED,85,63,Arming
0.4221038818359375,GPS_RAW_INT,24,56,Arming
0.42211389541625977,ATTITUDE,30,40,Arming
0.42212891578674316,ATTITUDE_QUATERNION,31,44,Arming
0.42214107513427734,SERVO_OUTPUT_RAW,36,15,Arming
0.4263019561767578,LOCAL_POSITION_NED,32,40,Arming
0.42632198333740234,ODOMETRY,331,244,Arming
0.43020009994506836,ATTITUDE,30,40,Arming
0.43021392822265625,LOCAL_POSITION_NED,32,40,Arming
0.4341709613800049,ATTITUDE_TARGET,83,48,Arming
0.4380950927734375,HIGHRES_IMU,105,74,Arming
0.4381120204925537,ATTITUDE,30,40,Arming
0.43812108039855957,ATTITUDE_QUATERNION,31,44,Arming
0.4381279945373535,GLOBAL_POSITION_INT,33,40,Arming
0.4381411075592041,GLOBAL_POSITION_INT,33,40,Arming
0.43816089630126953,POSITION_TARGET_LOCAL_NED,85,63,Arming
0.4421699047088623,ATTITUDE,30,40,Arming
0.44222092628479004,ATTITUDE_QUATERNION,31,44,Arming
0.4422340393066406,SERVO_OUTPUT_RAW,36,15,Arming
0.45020294189453125,ATTITUDE,30,40,Arming
0.45023202896118164,LOCAL_POSITION_NED,32,40,Arming
0.45422887802124023,GPS_RAW_INT,24,56,Arming
0.4542419910430908,ATTITUDE_TARGET,83,48,Arming
0.4581770896911621,TIMESYNC,111,25,Arming
0.45819807052612305,HIGHRES_IMU,105,73,Arming
0.4582040309906006,LOCAL_POSITION_NED,32,40,Arming
0.45821094512939453,GLOBAL_POSITION_INT,33,40,Arming
0.45821189880371094,ATTITUDE,30,40,Arming
0.4582180976867676,ALTITUDE,141,44,Arming
0.45822811126708984,ODOMETRY,331,244,Arming
0.4582350254058838,ATTITUDE_QUATERNION,31,44,Arming
0.45824098587036133,ATTITUDE_TARGET,83,48,Arming
0.4582479000091553,GLOBAL_POSITION_INT,33,40,Arming
0.45825695991516113,POSITION_TARGET_LOCAL_NED,85,63,Arming
0.45825791358947754,POSITION_TARGET_LOCAL_NED,85,63,Arming
0.4582641124725342,SERVO_OUTPUT_RAW,36,15,Arming
0.45827198028564453,SYS_STATUS,1,52,Arming
0.45827794075012207,VFR_HUD,74,29,Arming
0.4622230529785156,ATTITUDE,30,40,Arming
0.46227002143859863,ATTITUDE_QUATERNION,31,44,Arming
0.4622979164123535,SERVO_OUTPUT_RAW,36,15,Arming
0.47007107734680176,ATTITUDE,30,40,Arming
0.47009801864624023,LOCAL_POSITION_NED,32,40,Arming
0.4742250442504883,ATTITUDE_TARGET,83,48,Arming
0.4780728816986084,HIGHRES_IMU,105,73,Arming
0.47809290885925293,ATTITUDE,30,40,Arming
0.4781019687652588,GLOBAL_POSITION_INT,33,40,Arming
0.4781029224395752,ATTITUDE_QUATERNION,31,44,Arming
0.47811102867126465,GLOBAL_POSITION_INT,33,40,Arming
0.4781200885772705,POSITION_TARGET_LOCAL_NED,85,63,Arming
0.48203492164611816,ATTITUDE,30,40,Arming
0.4820520877838135,ATTITUDE_QUATERNION,31,44,Arming
0.48206496238708496,SERVO_OUTPUT_RAW,36,15,Arming
0.48607897758483887,GPS_RAW_INT,24,56,Arming
0.4901149272918701,LOCAL_POSITION_NED,32,40,Arming
0.4901580810546875,ATTITUDE,30,40,Arming
0.4905829429626465,MISSION_ACK,47,16,Arming
0.4921278953552246,MISSION_REQUEST_LIST,43,15,Arming
0.492372989654541,MISSION_COUNT,44,17,Arming
0.49413299560546875,ATTITUDE_TARGET,83,48,Arming
0.49421000480651855,LOCAL_POSITION_NED,32,40,Arming
0.494326114654541,ODOMETRY,331,244,Arming
0.5007569789886475,HIGHRES_IMU,105,74,Arming
0.5008180141448975,ATTITUDE,30,40,Arming
0.5008330345153809,ATTITUDE_QUATERNION,31,44,Arming
0.5008430480957031,GLOBAL_POSITION_INT,33,40,Arming
0.5011460781097412,GLOBAL_POSITION_INT,33,40,Arming
0.5012049674987793,POSITION_TARGET_LOCAL_NED,85,63,Arming
0.5021328926086426,ATTITUDE,30,40,Arming
0.5021529197692871,ATTITUDE_QUATERNION,31,44,Arming
0.5021679401397705,SERVO_OUTPUT_RAW,36,15,Arming
0.5102889537811279,ATTITUDE,30,40,Arming
0.5102889537811279,LOCAL_POSITION_NED,32,40,Arming
0.5104959011077881,PARAM_REQUEST_READ,20,29,Arming
0.5105130672454834,PARAM_REQUEST_READ,20,29,Arming
0.5105259418487549,PARAM_REQUEST_READ,20,29,Arming
0.5105359554290771,PARAM_REQUEST_READ,20,29,Arming
0.510653018951416,PARAM_VALUE,22,37,Arming
0.5157220363616943,ATTITUDE_TARGET,83,48,Arming
0.5188848972320557,HIGHRES_IMU,105,73,Arming
0.5189039707183838,ATTITUDE,30,40,Arming
0.5189158916473389,ATTITUDE_QUATERNION,31,44,Arming
0.5189189910888672,GLOBAL_POSITION_INT,33,40,Arming
0.5189239978790283,GLOBAL_POSITION_INT,33,40,Arming
0.5189380645751953,POSITION_TARGET_LOCAL_NED,85,63,Arming
0.5191349983215332,PARAM_SET,23,35,Arming
0.5191879272460938,PARAM_SET,23,35,Arming
0.5192010402679443,PARAM_SET,23,35,Arming
0.5192101001739502,PARAM_SET,23,35,Arming
0.5194990634918213,PARAM_VALUE,22,37,Arming
0.5222580432891846,GPS_RAW_INT,24,56,Arming
0.5223040580749512,ATTITUDE,30,40,Arming
0.5223190784454346,ATTITUDE_QUATERNION,31,44,Arming
0.5223309993743896,SERVO_OUTPUT_RAW,36,15,Arming
0.5267260074615479,LOCAL_POSITION_NED,32,40,Arming
0.5267519950866699,ODOMETRY,331,244,Arming
0.530601978302002,ATTITUDE,30,40,Arming
0.5306251049041748,LOCAL_POSITION_NED,32,40,Arming
0.5309510231018066,PARAM_SET,23,35,Arming
0.530987024307251,PARAM_SET,23,35,Arming
0.5310120582580566,PARAM_SET,23,35,Arming
0.5310299396514893,PARAM_SET,23,35,Arming
0.5311660766601562,PARAM_VALUE,22,37,Arming
0.5348958969116211,ATTITUDE_TARGET,83,48,Arming
0.5390450954437256,HIGHRES_IMU,105,73,Arming
0.5390620231628418,ATTITUDE,30,40,Arming
0.5390949249267578,ATTITUDE_QUATERNION,31,44,Arming
0.5391349792480469,GLOBAL_POSITION_INT,33,40,Arming
0.5391459465026855,GLOBAL_POSITION_INT,33,40,Arming
0.5392189025878906,PARAM_SET,23,35,Arming
0.5392210483551025,POSITION_TARGET_LOCAL_NED,85,63,Arming
0.5392310619354248,PARAM_SET,23,35,Arming
0.5392410755157471,PARAM_SET,23,35,Arming
0.5392489433288574,PARAM_SET,23,35,Arming
0.5393710136413574,PARAM_VALUE,22,37,Arming
0.5422680377960205,ATTITUDE,30,40,Arming
0.5422859191894531,ATTITUDE_QUATERNION,31,44,Arming
0.5422990322113037,SERVO_OUTPUT_RAW,36,15,Arming
0.5496389865875244,PARAM_SET,23,35,Arming
0.5496859550476074,PARAM_SET,23,35,Arming
0.5496969223022461,PARAM_SET,23,35,Arming
0.5497028827667236,PARAM_SET,23,35,Arming
0.5497910976409912,PARAM_VALUE,22,37,Arming
0.5502278804779053,LOCAL_POSITION_NED,32,40,Arming
0.5502490997314453,VFR_HUD,74,29,Arming
0.550771951675415,ATTITUDE,30,40,Arming
0.554034948348999,GPS_RAW_INT,24,56,Arming
0.5540359020233154,ATTITUDE_TARGET,83,48,Arming
0.5583209991455078,TIMESYNC,111,25,Arming
0.5583779811859131,HIGHRES_IMU,105,74,Arming
0.5583860874176025,LOCAL_POSITION_NED,32,40,Arming
0.5583939552307129,ATTITUDE,30,40,Arming
0.5584011077880859,ALTITUDE,141,44,Arming
0.5584108829498291,ODOMETRY,331,244,Arming
0.5584180355072021,ATTITUDE_QUATERNION,31,44,Arming
0.5584249496459961,ATTITUDE_TARGET,83,48,Arming
0.558434009552002,GLOBAL_POSITION_INT,33,40,Arming
0.5584440231323242,POSITION_TARGET_LOCAL_NED,85,63,Arming
0.5584509372711182,SERVO_OUTPUT_RAW,36,15,Arming
0.5584580898284912,VFR_HUD,74,29,Arming
0.5585260391235352,PARAM_SET,23,35,Arming
0.5585451126098633,PARAM_SET,23,35,Arming
0.558556079864502,PARAM_SET,23,35,Arming
0.5585670471191406,PARAM_SET,23,35,Arming
0.5586819648742676,PARAM_VALUE,22,37,Arming
0.5589160919189453,GLOBAL_POSITION_INT,33,40,Arming
0.5589349269866943,POSITION_TARGET_LOCAL_NED,85,63,Arming
0.5653679370880127,ATTITUDE,30,40,Arming
0.5653889179229736,ATTITUDE_QUATERNION,31,44,Arming
0.5654029846191406,SERVO_OUTPUT_RAW,36,15,Arming
0.5695579051971436,MISSION_CLEAR_ALL,45,14,Arming
0.5696001052856445,MISSION_CLEAR_ALL,45,14,Arming
0.5696489810943604,MISSION_CLEAR_ALL,45,14,Arming
0.5696640014648438,MISSION_CLEAR_ALL,45,14,Arming
0.5706350803375244,ATTITUDE,30,40,Arming
0.5708010196685791,LOCAL_POSITION_NED,32,40,Arming
0.5734930038452148,MISSION_ACK,47,14,Arming
0.5745029449462891,ATTITUDE_TARGET,83,48,Arming
0.577517032623291,MISSION_ACK,47,16,Arming
0.5792639255523682,HIGHRES_IMU,105,73,Arming
0.5792648792266846,GLOBAL_POSITION_INT,33,40,Arming
0.5793430805206299,POSITION_TARGET_LOCAL_NED,85,63,Arming
0.5794370174407959,ATTITUDE,30,40,Arming
0.5794570446014404,ATTITUDE_QUATERNION,31,44,Arming
0.5794699192047119,GLOBAL_POSITION_INT,33,40,Arming
0.5827798843383789,ATTITUDE,30,40,Arming
0.5828089714050293,ATTITUDE_QUATERNION,31,44,Arming
0.5828239917755127,SERVO_OUTPUT_RAW,36,15,Arming
0.5862898826599121,GPS_RAW_INT,24,56,Arming
0.5903429985046387,LOCAL_POSITION_NED,32,40,Arming
0.5903730392456055,ATTITUDE,30,40,Arming
0.5905599594116211,MISSION_COUNT,44,16,Arming
0.5906078815460205,MISSION_COUNT,44,16,Arming
0.5906510353088379,MISSION_COUNT,44,16,Arming
0.5906651020050049,MISSION_COUNT,44,16,Arming
0.5907430648803711,MISSION_REQUEST_INT,51,16,Arming
0.5909249782562256,MISSION_ITEM_INT,73,49,Arming
0.5909640789031982,MISSION_ITEM_INT,73,49,Arming
0.5910079479217529,MISSION_ITEM_INT,73,49,Arming
0.5910201072692871,MISSION_ITEM_INT,73,49,Arming
0.5947940349578857,MISSION_REQUEST_INT,51,16,Arming
0.5949358940124512,MISSION_ITEM_INT,73,49,Arming
0.5949499607086182,MISSION_ITEM_INT,73,49,Arming
0.594965934753418,MISSION_ITEM_INT,73,49,Arming
0.5949780941009521,MISSION_ITEM_INT,73,49,Arming
0.5950119495391846,ATTITUDE_TARGET,83,48,Arming
0.5964748859405518,LOCAL_POSITION_NED,32,40,Arming
0.596595048904419,ODOMETRY,331,244,Arming
0.5997719764709473,HIGHRES_IMU,105,73,Arming
0.599822998046875,ATTITUDE,30,40,Arming
0.5998399257659912,ATTITUDE_QUATERNION,31,44,Arming
0.599876880645752,GLOBAL_POSITION_INT,33,40,Arming
0.6013109683990479,GLOBAL_POSITION_INT,33,40,Arming
0.6013290882110596,GPS_RAW_INT,24,56,Arming
0.6013400554656982,POSITION_TARGET_LOCAL_NED,85,63,Arming
0.6020419597625732,ATTITUDE,30,40,Arming
0.6020569801330566,ATTITUDE_QUATERNION,31,44,Arming
0.6020700931549072,SERVO_OUTPUT_RAW,36,15,Arming
0.6045479774475098,MISSION_REQUEST_INT,51,16,Arming
0.6047239303588867,MISSION_ITEM_INT,73,49,Arming
0.6047649383544922,MISSION_ITEM_INT,73,49,Arming
0.6048479080200195,MISSION_ITEM_INT,73,49,Arming
0.6048638820648193,MISSION_ITEM_INT,73,49,Arming
0.6073238849639893,MISSION_REQUEST_INT,51,16,Arming
0.6075360774993896,MISSION_ITEM_INT,73,49,Arming
0.6075880527496338,MISSION_ITEM_INT,73,49,Arming
0.6076018810272217,MISSION_ITEM_INT,73,49,Arming
0.6076130867004395,MISSION_ITEM_INT,73,49,Arming
0.6105539798736572,ATTITUDE,30,40,Arming
0.6105771064758301,LOCAL_POSITION_NED,32,40,Arming
0.6120800971984863,MISSION_REQUEST_INT,51,16,Arming
0.6130828857421875,MISSION_ITEM_INT,73,49,Arming
0.6131041049957275,MISSION_ITEM_INT,73,49,Arming
0.6131179332733154,MISSION_ITEM_INT,73,49,Arming
0.6131300926208496,MISSION_ITEM_INT,73,49,Arming
0.6161859035491943,ATTITUDE_TARGET,83,48,Arming
0.6168520450592041,MISSION_REQUEST_INT,51,16,Arming
0.6169919967651367,MISSION_ITEM_INT,73,49,Arming
0.6170029640197754,MISSION_ITEM_INT,73,49,Arming
0.6170508861541748,MISSION_ITEM_INT,73,49,Arming
0.6170649528503418,MISSION_ITEM_INT,73,49,Arming
0.6181550025939941,GLOBAL_POSITION_INT,33,40,Arming
0.6181609630584717,HIGHRES_IMU,105,74,Arming
0.618319034576416,ATTITUDE,30,40,Arming
0.6183369159698486,ATTITUDE_QUATERNION,31,44,Arming
0.6183469295501709,GLOBAL_POSITION_INT,33,40,Arming
0.6183559894561768,GPS_RAW_INT,24,56,Arming
0.618602991104126,POSITION_TARGET_LOCAL_NED,85,63,Arming
0.6191129684448242,MISSION_REQUEST_INT,51,16,Arming
0.6193089485168457,MISSION_ITEM_INT,73,49,Arming
0.6193239688873291,MISSION_ITEM_INT,73,49,Arming
0.6193349361419678,MISSION_ITEM_INT,73,49,Arming
0.61934494972229,MISSION_ITEM_INT,73,49,Arming
0.6220190525054932,MISSION_REQUEST_INT,51,16,Arming
0.6221230030059814,ATTITUDE,30,40,Arming
0.6221389770507812,ATTITUDE_QUATERNION,31,44,Arming
0.6221530437469482,SERVO_OUTPUT_RAW,36,15,Arming
0.622189998626709,MISSION_ITEM_INT,73,49,Arming
0.622204065322876,MISSION_ITEM_INT,73,49,Arming
0.6222150325775146,MISSION_ITEM_INT,73,49,Arming
0.6222250461578369,MISSION_ITEM_INT,73,49,Arming
0.6237990856170654,MISSION_REQUEST_INT,51,16,Arming
0.6239368915557861,MISSION_ITEM_INT,73,49,Arming
0.6239540576934814,MISSION_ITEM_INT,73,49,Arming
0.6239619255065918,MISSION_ITEM_INT,73,49,Arming
0.6239709854125977,MISSION_ITEM_INT,73,49,Arming
0.6258020401000977,MISSION_REQUEST_INT,51,16,Arming
0.6260240077972412,MISSION_ITEM_INT,73,49,Arming
0.626075029373169,MISSION_ITEM_INT,73,49,Arming
0.6260900497436523,MISSION_ITEM_INT,73,49,Arming
0.6260991096496582,MISSION_ITEM_INT,73,49,Arming
0.6266400814056396,LOCAL_POSITION_NED,32,40,Arming
0.6266798973083496,ODOMETRY,331,244,Arming
0.6288750171661377,MISSION_REQUEST_INT,51,16,Arming
0.6299788951873779,MISSION_ITEM_INT,73,49,Arming
0.6299989223480225,MISSION_ITEM_INT,73,49,Arming
0.6300299167633057,MISSION_ITEM_INT,73,49,Arming
0.630047082901001,MISSION_ITEM_INT,73,49,Arming
0.6310169696807861,LOCAL_POSITION_NED,32,40,Arming
0.6331009864807129,ATTITUDE,30,40,Arming
0.6333889961242676,MISSION_REQUEST_INT,51,16,Arming
0.6335670948028564,MISSION_ITEM_INT,73,49,Arming
0.6336309909820557,MISSION_ITEM_INT,73,49,Arming
0.6336450576782227,MISSION_ITEM_INT,73,49,Arming
0.6336898803710938,MISSION_ITEM_INT,73,49,Arming
0.6339709758758545,ATTITUDE_TARGET,83,48,Arming
0.6345350742340088,MISSION_REQUEST_INT,51,16,Arming
0.6347060203552246,MISSION_ITEM_INT,73,49,Arming
0.6347560882568359,MISSION_ITEM_INT,73,49,Arming
0.6347699165344238,MISSION_ITEM_INT,73,49,Arming
0.6347780227661133,MISSION_ITEM_INT,73,49,Arming
0.6373169422149658,MISSION_ACK,47,20,Arming
0.6381700038909912,HIGHRES_IMU,105,73,Arming
0.6381819248199463,GLOBAL_POSITION_INT,33,40,Arming
0.6381909847259521,ATTITUDE,30,40,Arming
0.6382009983062744,ATTITUDE_QUATERNION,31,44,Arming
0.6382091045379639,GLOBAL_POSITION_INT,33,40,Arming
0.6382861137390137,POSITION_TARGET_LOCAL_NED,85,63,Arming
0.642503023147583,ATTITUDE,30,40,Arming
0.6425750255584717,ATTITUDE_QUATERNION,31,44,Arming
0.6425929069519043,SERVO_OUTPUT_RAW,36,15,Arming
0.650705099105835,LOCAL_POSITION_NED,32,40,Arming
0.651263952255249,ATTITUDE,30,40,Arming
0.6541709899902344,GPS_RAW_INT,24,56,Arming
0.6542460918426514,ATTITUDE_TARGET,83,48,Arming
0.6594009399414062,TIMESYNC,111,25,Arming
0.6598451137542725,HIGHRES_IMU,105,73,Arming
0.6598560810089111,LOCAL_POSITION_NED,32,40,Arming
0.6598670482635498,ATTITUDE,30,40,Arming
0.6598770618438721,ALTITUDE,141,44,Arming
0.6598899364471436,ODOMETRY,331,244,Arming
0.6598999500274658,ATTITUDE_QUATERNION,31,44,Arming
0.6599080562591553,ATTITUDE_TARGET,83,48,Arming
0.6599180698394775,GLOBAL_POSITION_INT,33,40,Arming
0.6599259376525879,POSITION_TARGET_LOCAL_NED,85,63,Arming
0.6599318981170654,SERVO_OUTPUT_RAW,36,15,Arming
0.6599390506744385,SYS_STATUS,1,52,Arming
0.6599440574645996,VFR_HUD,74,29,Arming
0.659977912902832,GLOBAL_POSITION_INT,33,40,Arming
0.6600360870361328,POSITION_TARGET_LOCAL_NED,85,63,Arming
0.6644160747528076,ATTITUDE,30,40,Arming
0.6644570827484131,ATTITUDE_QUATERNION,31,44,Arming
0.6644740104675293,SERVO_OUTPUT_RAW,36,15,Arming
0.6702489852905273,ATTITUDE,30,40,Arming
0.6702721118927002,LOCAL_POSITION_NED,32,40,Arming
0.6741299629211426,ATTITUDE_TARGET,83,48,Arming
0.6787140369415283,HIGHRES_IMU,105,74,Arming
0.6787199974060059,GLOBAL_POSITION_INT,33,40,Arming
0.6787629127502441,ATTITUDE,30,40,Arming
0.6787800788879395,ATTITUDE_QUATERNION,31,44,Arming
0.6788010597229004,GLOBAL_POSITION_INT,33,40,Arming
0.6788771152496338,POSITION_TARGET_LOCAL_NED,85,63,Arming
0.6822359561920166,ATTITUDE,30,40,Arming
0.6822860240936279,ATTITUDE_QUATERNION,31,44,Arming
0.6823000907897949,SERVO_OUTPUT_RAW,36,15,Arming
0.6862390041351318,GPS_RAW_INT,24,56,Arming
0.6900889873504639,ATTITUDE,30,40,Arming
0.6900889873504639,LOCAL_POSITION_NED,32,40,Arming
0.6946310997009277,ATTITUDE_TARGET,83,48,Arming
0.6946320533752441,LOCAL_POSITION_NED,32,40,Arming
0.6946649551391602,ODOMETRY,331,244,Arming
0.6981840133666992,HIGHRES_IMU,105,74,Arming
0.6981871128082275,GLOBAL_POSITION_INT,33,40,Arming
0.6982049942016602,ATTITUDE,30,40,Arming
0.6982049942016602,POSITION_TARGET_LOCAL_NED,85,63,Arming
0.6982150077819824,ATTITUDE_QUATERNION,31,44,Arming
0.6982240676879883,GLOBAL_POSITION_INT,33,40,Arming
0.7021911144256592,ATTITUDE,30,40,Arming
0.7022349834442139,ATTITUDE_QUATERNION,31,44,Arming
0.7022509574890137,SERVO_OUTPUT_RAW,36,15,Arming
0.7101860046386719,ATTITUDE,30,40,Arming
0.7101860046386719,LOCAL_POSITION_NED,32,40,Arming
0.7141430377960205,ATTITUDE_TARGET,83,48,Arming
0.718134880065918,HIGHRES_IMU,105,73,Arming
0.7181539535522461,ATTITUDE,30,40,Arming
0.7181639671325684,ATTITUDE_QUATERNION,31,44,Arming
0.7181839942932129,GLOBAL_POSITION_INT,33,40,Arming
0.7182090282440186,GLOBAL_POSITION_INT,33,40,Arming
0.7182190418243408,GPS_RAW_INT,24,56,Arming
0.7182350158691406,POSITION_TARGET_LOCAL_NED,85,63,Arming
0.7221629619598389,ATTITUDE,30,40,Arming
0.7231130599975586,ATTITUDE_QUATERNION,31,44,Arming
0.7231380939483643,SERVO_OUTPUT_RAW,36,15,Arming
0.7261478900909424,LOCAL_POSITION_NED,32,40,Arming
0.7261669635772705,ODOMETRY,331,244,Arming
0.7300870418548584,ATTITUDE,30,40,Arming
0.7301180362701416,LOCAL_POSITION_NED,32,40,Arming
0.7341148853302002,ATTITUDE_TARGET,83,48,Arming
0.7381300926208496,GLOBAL_POSITION_INT,33,40,Arming
0.7381899356842041,POSITION_TARGET_LOCAL_NED,85,63,Arming
0.7389578819274902,HIGHRES_IMU,105,74,Arming
0.7389791011810303,ATTITUDE,30,40,Arming
0.738990068435669,ATTITUDE_QUATERNION,31,44,Arming
0.7389988899230957,GLOBAL_POSITION_INT,33,40,Arming
0.7421340942382812,ATTITUDE,30,40,Arming
0.7421948909759521,ATTITUDE_QUATERNION,31,44,Arming
0.7422060966491699,SERVO_OUTPUT_RAW,36,15,Arming
0.750636100769043,ATTITUDE,30,40,Arming
0.7506899833679199,GPS_RAW_INT,24,56,Arming
0.7507059574127197,LOCAL_POSITION_NED,32,40,Arming
0.7542800903320312,ATTITUDE_TARGET,83,48,Arming
0.7581100463867188,TIMESYNC,111,25,Arming
0.7581110000610352,GLOBAL_POSITION_INT,33,40,Arming
0.7581300735473633,HIGHRES_IMU,105,73,Arming
0.7581379413604736,LOCAL_POSITION_NED,32,40,Arming
0.7581470012664795,ATTITUDE,30,40,Arming
0.758152961730957,ALTITUDE,141,44,Arming
0.7581620216369629,POSITION_TARGET_LOCAL_NED,85,63,Arming
0.7581639289855957,ODOMETRY,331,244,Arming
0.7581710815429688,ATTITUDE_QUATERNION,31,44,Arming
0.7581770420074463,ATTITUDE_TARGET,83,48,Arming
0.7581849098205566,GLOBAL_POSITION_INT,33,40,Arming
0.7581930160522461,POSITION_TARGET_LOCAL_NED,85,63,Arming
0.75819993019104,SERVO_OUTPUT_RAW,36,15,Arming
0.7582070827484131,VFR_HUD,74,29,Arming
0.765286922454834,ATTITUDE,30,40,Arming
0.7653059959411621,ATTITUDE_QUATERNION,31,44,Arming
0.7653379440307617,SERVO_OUTPUT_RAW,36,15,Arming
0.7705230712890625,ATTITUDE,30,40,Arming
0.7705690860748291,LOCAL_POSITION_NED,32,40,Arming
0.7740590572357178,ATTITUDE_TARGET,83,48,Arming
0.7781178951263428,HIGHRES_IMU,105,73,Arming
0.7781379222869873,ATTITUDE,30,40,Arming
0.7781479358673096,ATTITUDE_QUATERNION,31,44,Arming
0.7781569957733154,GLOBAL_POSITION_INT,33,40,Arming
0.7789580821990967,GLOBAL_POSITION_INT,33,40,Arming
0.7789790630340576,POSITION_TARGET_LOCAL_NED,85,63,Arming
0.7827160358428955,ATTITUDE,30,40,Arming
0.7827339172363281,ATTITUDE_QUATERNION,31,44,Arming
0.7827479839324951,SERVO_OUTPUT_RAW,36,15,Arming
0.7862489223480225,GPS_RAW_INT,24,56,Arming
0.7903499603271484,LOCAL_POSITION_NED,32,40,Arming
0.7905640602111816,ATTITUDE,30,40,Arming
0.7941470146179199,LOCAL_POSITION_NED,32,40,Arming
0.7941720485687256,ODOMETRY,331,244,Arming
0.794409990310669,ATTITUDE_TARGET,83,48,Arming
0.7981131076812744,HEARTBEAT,0,21,Arming
0.7981131076812744,HIGHRES_IMU,105,74,Arming
0.7981328964233398,ALTITUDE,141,44,Arming
0.7981441020965576,EXTENDED_SYS_STATE,245,14,Arming
0.7981500625610352,GLOBAL_POSITION_INT,33,40,Arming
0.7981560230255127,GPS_RAW_INT,24,56,Arming
0.7981650829315186,OPEN_DRONE_ID_LOCATION,12901,70,Arming
0.7981669902801514,ATTITUDE,30,40,Arming
0.7981710433959961,OPEN_DRONE_ID_SYSTEM,12904,37,Arming
0.7981839179992676,POSITION_TARGET_LOCAL_NED,85,63,Arming
0.7981851100921631,ATTITUDE_QUATERNION,31,44,Arming
0.7981929779052734,SCALED_PRESSURE,29,26,Arming
0.7981948852539062,GLOBAL_POSITION_INT,33,40,Arming
0.7982149124145508,SYS_STATUS,1,52,Arming
0.7982239723205566,VFR_HUD,74,29,Arming
0.7982299327850342,UNKNOWN_8,-2,33,Arming
0.8021719455718994,ATTITUDE,30,40,Arming
0.8021860122680664,ATTITUDE_QUATERNION,31,44,Arming
0.8021979331970215,SERVO_OUTPUT_RAW,36,15,Arming
0.8064680099487305,UNKNOWN_411,-2,13,Arming
0.8102059364318848,ATTITUDE,30,40,Arming
0.8102068901062012,LOCAL_POSITION_NED,32,40,Arming
0.8137049674987793,COMMAND_LONG,76,44,Arming
0.8145670890808105,ATTITUDE_TARGET,83,48,Arming
0.8207221031188965,HIGHRES_IMU,105,73,Arming
0.8207409381866455,ATTITUDE,30,40,Arming
0.8207499980926514,ATTITUDE_QUATERNION,31,44,Arming
0.8207581043243408,GLOBAL_POSITION_INT,33,40,Arming
0.8207659721374512,GPS_RAW_INT,24,56,Arming
0.8211569786071777,COMMAND_ACK,77,22,Arming
0.8211779594421387,GLOBAL_POSITION_INT,33,40,Arming
0.8211889266967773,POSITION_TARGET_LOCAL_NED,85,63,Arming
0.8229479789733887,ATTITUDE,30,40,Arming
0.8229711055755615,ATTITUDE_QUATERNION,31,44,Arming
0.8229858875274658,SERVO_OUTPUT_RAW,36,15,Arming
0.8264529705047607,LOCAL_POSITION_NED,32,40,Arming
0.8264729976654053,ODOMETRY,331,244,Arming
0.8312129974365234,MISSION_CURRENT,42,22,Arming
0.8313250541687012,LOCAL_POSITION_NED,32,40,Arming
0.8314580917358398,ATTITUDE,30,40,Arming
0.8341898918151855,ATTITUDE_TARGET,83,48,Arming
0.8383629322052002,HIGHRES_IMU,105,74,Arming
0.8383920192718506,GLOBAL_POSITION_INT,33,40,Arming
0.8384149074554443,ATTITUDE,30,40,Arming
0.8384280204772949,ATTITUDE_QUATERNION,31,44,Arming
0.8384349346160889,GLOBAL_POSITION_INT,33,40,Arming
0.8384530544281006,POSITION_TARGET_LOCAL_NED,85,63,Arming
0.8422620296478271,ATTITUDE,30,40,Arming
0.8423221111297607,ATTITUDE_QUATERNION,31,44,Arming
0.842336893081665,SERVO_OUTPUT_RAW,36,15,Arming
0.8501570224761963,ATTITUDE,30,40,Arming
0.8501710891723633,LOCAL_POSITION_NED,32,40,Arming
0.8501780033111572,GPS_RAW_INT,24,56,Arming
0.8546020984649658,ATTITUDE_TARGET,83,48,Arming
0.8587539196014404,TIMESYNC,111,25,Arming
0.858781099319458,GLOBAL_POSITION_INT,33,40,Arming
0.8588089942932129,HIGHRES_IMU,105,74,Arming
0.8588199615478516,LOCAL_POSITION_NED,32,40,Arming
0.8588271141052246,POSITION_TARGET_LOCAL_NED,85,63,Arming
0.8588380813598633,ATTITUDE,30,40,Arming
0.858849048614502,ALTITUDE,141,44,Arming
0.8588669300079346,ODOMETRY,331,244,Arming
0.8588800430297852,ATTITUDE_QUATERNION,31,44,Arming
0.8588910102844238,ATTITUDE_TARGET,83,48,Arming
0.8589069843292236,GLOBAL_POSITION_INT,33,40,Arming
0.8589200973510742,POSITION_TARGET_LOCAL_NED,85,63,Arming
0.8589270114898682,SERVO_OUTPUT_RAW,36,15,Arming
0.8589348793029785,SYS_STATUS,1,52,Arming
0.8589439392089844,VFR_HUD,74,29,Arming
0.8622579574584961,ATTITUDE,30,40,Arming
0.8622729778289795,ATTITUDE_QUATERNION,31,44,Arming
0.8622839450836182,SERVO_OUTPUT_RAW,36,15,Arming
0.8703830242156982,ATTITUDE,30,40,Arming
0.8704071044921875,LOCAL_POSITION_NED,32,40,Arming
0.8743689060211182,ATTITUDE_TARGET,83,48,Arming
0.8782830238342285,HIGHRES_IMU,105,73,Arming
0.8783009052276611,ATTITUDE,30,40,Arming
0.878309965133667,ATTITUDE_QUATERNION,31,44,Arming
0.8783180713653564,GLOBAL_POSITION_INT,33,40,Arming
0.8783318996429443,GLOBAL_POSITION_INT,33,40,Arming
0.8783919811248779,POSITION_TARGET_LOCAL_NED,85,63,Arming
0.8822140693664551,GPS_RAW_INT,24,56,Arming
0.8822441101074219,ATTITUDE,30,40,Arming
0.8822898864746094,ATTITUDE_QUATERNION,31,44,Arming
0.8823039531707764,SERVO_OUTPUT_RAW,36,15,Arming
0.8905539512634277,ATTITUDE,30,40,Arming
0.8905620574951172,LOCAL_POSITION_NED,32,40,Arming
0.894819974899292,ATTITUDE_TARGET,83,48,Arming
0.894819974899292,LOCAL_POSITION_NED,32,40,Arming
0.894874095916748,ODOMETRY,331,244,Arming
0.8980939388275146,HIGHRES_IMU,105,73,Arming
0.8980998992919922,GLOBAL_POSITION_INT,33,40,Arming
0.8981120586395264,ATTITUDE,30,40,Arming
0.8981220722198486,ATTITUDE_QUATERNION,31,44,Arming
0.898129940032959,GLOBAL_POSITION_INT,33,40,Arming
0.8981471061706543,POSITION_TARGET_LOCAL_NED,85,63,Arming
0.9022030830383301,ATTITUDE,30,40,Arming
0.9022209644317627,ATTITUDE_QUATERNION,31,44,Arming
0.9022359848022461,SERVO_OUTPUT_RAW,36,15,Arming
0.9112379550933838,LOCAL_POSITION_NED,32,40,Arming
0.9112401008605957,ATTITUDE,30,40,Arming
0.914064884185791,ATTITUDE_TARGET,83,48,Arming
0.9181549549102783,HIGHRES_IMU,105,74,Arming
0.9181749820709229,ATTITUDE,30,40,Arming
0.9181830883026123,ATTITUDE_QUATERNION,31,44,Arming
0.9181900024414062,GLOBAL_POSITION_INT,33,40,Arming
0.9181959629058838,GPS_RAW_INT,24,56,Arming
0.9182319641113281,GLOBAL_POSITION_INT,33,40,Arming
0.9182460308074951,POSITION_TARGET_LOCAL_NED,85,63,Arming
0.922274112701416,ATTITUDE,30,40,Arming
0.9222910404205322,ATTITUDE_QUATERNION,31,44,Arming
0.9223051071166992,SERVO_OUTPUT_RAW,36,15,Arming
0.9263908863067627,LOCAL_POSITION_NED,32,40,Arming
0.9264829158782959,ODOMETRY,331,244,Arming
0.9302849769592285,LOCAL_POSITION_NED,32,40,Arming
0.9302849769592285,ATTITUDE,30,40,Arming
0.9342761039733887,ATTITUDE_TARGET,83,48,Arming
0.9382150173187256,HIGHRES_IMU,105,73,Arming
0.9382319450378418,GLOBAL_POSITION_INT,33,40,Arming
0.9382529258728027,POSITION_TARGET_LOCAL_NED,85,63,Arming
0.9383070468902588,ATTITUDE,30,40,Arming
0.9383180141448975,ATTITUDE_QUATERNION,31,44,Arming
0.9383249282836914,GLOBAL_POSITION_INT,33,40,Arming
0.943140983581543,ATTITUDE,30,40,Arming
0.9431900978088379,ATTITUDE_QUATERNION,31,44,Arming
0.9432060718536377,SERVO_OUTPUT_RAW,36,15,Arming
0.9501290321350098,LOCAL_POSITION_NED,32,40,Arming
0.950145959854126,ATTITUDE,30,40,Arming
0.9501678943634033,GPS_RAW_INT,24,56,Arming
0.9544589519500732,ATTITUDE_TARGET,83,48,Arming
0.9586069583892822,TIMESYNC,111,25,Arming
0.9586319923400879,HIGHRES_IMU,105,73,Arming
0.9586389064788818,LOCAL_POSITION_NED,32,40,Arming
0.9586400985717773,GLOBAL_POSITION_INT,33,40,Arming
0.9586520195007324,ATTITUDE,30,40,Arming
0.9586589336395264,ALTITUDE,141,44,Arming
0.9586610794067383,POSITION_TARGET_LOCAL_NED,85,63,Arming
0.958669900894165,ODOMETRY,331,244,Arming
0.9586780071258545,ATTITUDE_QUATERNION,31,44,Arming
0.958683967590332,ATTITUDE_TARGET,83,48,Arming
0.9586920738220215,GLOBAL_POSITION_INT,33,40,Arming
0.9586999416351318,POSITION_TARGET_LOCAL_NED,85,63,Arming
0.9587070941925049,SERVO_OUTPUT_RAW,36,15,Arming
0.9587149620056152,VFR_HUD,74,29,Arming
0.9625868797302246,ATTITUDE,30,40,Arming
0.9626379013061523,ATTITUDE_QUATERNION,31,44,Arming
0.9626491069793701,SERVO_OUTPUT_RAW,36,15,Arming
0.9702498912811279,ATTITUDE,30,40,Arming
0.9703140258789062,LOCAL_POSITION_NED,32,40,Arming
0.9747779369354248,ATTITUDE_TARGET,83,48,Arming
0.9786889553070068,HIGHRES_IMU,105,74,Arming
0.9787099361419678,ATTITUDE,30,40,Arming
0.9787120819091797,GLOBAL_POSITION_INT,33,40,Arming
0.97871994972229,ATTITUDE_QUATERNION,31,44,Arming
0.9787280559539795,GLOBAL_POSITION_INT,33,40,Arming
0.9787359237670898,POSITION_TARGET_LOCAL_NED,85,63,Arming
0.9821319580078125,ATTITUDE,30,40,Arming
0.9822030067443848,GPS_RAW_INT,24,56,Arming
0.9822289943695068,ATTITUDE_QUATERNION,31,44,Arming
0.9822509288787842,SERVO_OUTPUT_RAW,36,15,Arming
0.9905951023101807,LOCAL_POSITION_NED,32,40,Arming
0.9905970096588135,ATTITUDE,30,40,Arming
0.9912679195404053,HEARTBEAT,0,21,Arming
0.994502067565918,ATTITUDE_TARGET,83,48,Arming
0.9945170879364014,LOCAL_POSITION_NED,32,40,Arming
0.9945371150970459,ODOMETRY,331,244,Arming
0.9945518970489502,HEARTBEAT,0,21,Arming
0.9981229305267334,HIGHRES_IMU,105,73,Arming
0.9981389045715332,GLOBAL_POSITION_INT,33,40,Arming
0.9981410503387451,ATTITUDE,30,40,Arming
0.9981520175933838,ATTITUDE_QUATERNION,31,44,Arming
0.9981579780578613,GPS_RAW_INT,24,56,Arming
0.9981589317321777,GLOBAL_POSITION_INT,33,40,Arming
0.9981670379638672,POSITION_TARGET_LOCAL_NED,85,63,Arming
0.9982810020446777,PING,4,17,Arming
0.998323917388916,PING,4,17,Arming
0.9983680248260498,PING,4,17,Arming
0.9984099864959717,PING,4,17,Arming
0.9984428882598877,PING,4,26,Arming
0.9984440803527832,PING,4,26,Arming
0.9984519481658936,PING,4,26,Arming
0.9984979629516602,PING,4,26,Arming
1.0022261142730713,ATTITUDE,30,40,Arming
1.0022430419921875,ATTITUDE_QUATERNION,31,44,Arming
1.0022549629211426,SERVO_OUTPUT_RAW,36,15,Arming
1.0022640228271484,PING,4,17,Arming
1.0106821060180664,LOCAL_POSITION_NED,32,40,Arming
1.0107340812683105,ATTITUDE,30,40,Arming
1.014132022857666,GPS_RAW_INT,24,56,Arming
1.0141589641571045,ATTITUDE_TARGET,83,48,Arming
1.0180320739746094,HIGHRES_IMU,105,73,Arming
1.0180790424346924,GLOBAL_POSITION_INT,33,40,Arming
1.0180869102478027,ATTITUDE,30,40,Arming
1.0180931091308594,POSITION_TARGET_LOCAL_NED,85,63,Arming
1.018096923828125,ATTITUDE_QUATERNION,31,44,Arming
1.018104076385498,GLOBAL_POSITION_INT,33,40,Arming
1.0221149921417236,ATTITUDE,30,40,Arming
1.0221569538116455,ATTITUDE_QUATERNION,31,44,Arming
1.0221669673919678,SERVO_OUTPUT_RAW,36,15,Arming
1.026386022567749,LOCAL_POSITION_NED,32,40,Arming
1.0264101028442383,ODOMETRY,331,244,Arming
1.0301189422607422,ATTITUDE,30,40,Arming
1.0303099155426025,LOCAL_POSITION_NED,32,40,Arming
1.0341830253601074,ATTITUDE_TARGET,83,48,Arming
1.0381200313568115,HIGHRES_IMU,105,74,Arming
1.0381369590759277,GLOBAL_POSITION_INT,33,40,Arming
1.0381379127502441,ATTITUDE,30,40,Arming
1.0381479263305664,ATTITUDE_QUATERNION,31,44,Arming
1.0381550788879395,GLOBAL_POSITION_INT,33,40,Arming
1.0381560325622559,POSITION_TARGET_LOCAL_NED,85,63,Arming
1.0421040058135986,ATTITUDE,30,40,Arming
1.0421459674835205,ATTITUDE_QUATERNION,31,44,Arming
1.0421578884124756,SERVO_OUTPUT_RAW,36,15,Arming
1.0500121116638184,ATTITUDE,30,40,Arming
1.0500290393829346,GPS_RAW_INT,24,56,Arming
1.0500409603118896,LOCAL_POSITION_NED,32,40,Arming
1.0500569343566895,VFR_HUD,74,29,Arming
1.0540430545806885,ATTITUDE_TARGET,83,48,Arming
1.0580189228057861,HEARTBEAT,0,21,Arming
1.0580339431762695,TIMESYNC,111,25,Arming
1.058042049407959,HIGHRES_IMU,105,73,Arming
1.0580470561981201,LOCAL_POSITION_NED,32,40,Arming
1.0580480098724365,GLOBAL_POSITION_INT,33,40,Arming
1.0580530166625977,ATTITUDE,30,40,Arming
1.0580589771270752,ALTITUDE,141,44,Arming
1.058060884475708,POSITION_TARGET_LOCAL_NED,85,63,Arming
1.058068037033081,ODOMETRY,331,244,Arming
1.0580739974975586,ATTITUDE_QUATERNION,31,44,Arming
1.0580790042877197,ATTITUDE_TARGET,83,48,Arming
1.0580840110778809,ESTIMATOR_STATUS,230,54,Arming
1.058089017868042,EXTENDED_SYS_STATE,245,14,Arming
1.0580940246582031,GLOBAL_POSITION_INT,33,40,Arming
1.0581018924713135,OPEN_DRONE_ID_LOCATION,12901,70,Arming
1.0581068992614746,OPEN_DRONE_ID_SYSTEM,12904,37,Arming
1.0581119060516357,PING,4,21,Arming
1.0581181049346924,POSITION_TARGET_LOCAL_NED,85,63,Arming
